[{
	"name": "延庆区",
	"value": 31.4,
	"lng": 115.981186,
	"lat": 40.462706
}, {
	"name": "怀柔区",
	"value": 38.4,
	"lng": 116.63853,
	"lat": 40.322563
}, {
	"name": "密云区",
	"value": 47.9,
	"lng": 116.849551,
	"lat": 40.382999
}, {
	"name": "昌平区",
	"value": 196.3,
	"lng": 116.237832,
	"lat": 40.226854
}, {
	"name": "顺义区",
	"value": 102,
	"lng": 116.663242,
	"lat": 40.1362
}, {
	"name": "平谷区",
	"value": 42.3,
	"lng": 117.128025,
	"lat": 40.147115
}, {
	"name": "门头沟区",
	"value": 30.8,
	"lng": 116.108179,
	"lat": 39.94648
}, {
	"name": "海淀区",
	"value": 369.4,
	"lng": 116.304872,
	"lat": 39.96553
}, {
	"name": "石景山区",
	"value": 65.2,
	"lng": 116.229612,
	"lat": 39.912017
}, {
	"name": "西城区",
	"value": 129.8,
	"lng": 116.372397,
	"lat": 39.918561
}, {
	"name": "东城区",
	"value": 90.5,
	"lng": 116.42272,
	"lat": 39.934579
}, {
	"name": "朝阳区",
	"value": 395.5,
	"lng": 116.449767,
	"lat": 39.927254
}, {
	"name": "通州区",
	"value": 137.8,
	"lng": 116.662928,
	"lat": 39.917001
}, {
	"name": "大兴区",
	"value": 156.2,
	"lng": 116.348053,
	"lat": 39.732833
}, {
	"name": "房山区",
	"value": 104.6,
	"lng": 116.149892,
	"lat": 39.755039
}, {
	"name": "丰台区",
	"value": 232.4,
	"lng": 116.293105,
	"lat": 39.865042
}]